{
    "api_list": [
        {
            "name": "GetAll",
            "schema": {
                "id": "int",
                "name": "str",
                "street": "str",
                "city": "str",
                "state": "str",
                "accessible": "bool",
                "unisex": "bool",
                "directions": "str",
                "latitude": "float",
                "longitude": "float",
                "country": "str",
                "changing_table": "bool",
                "approved": "bool"
            }
        },
        {
            "name": "GetByDate",
            "schema": {
                "id": "int",
                "name": "str",
                "street": "str",
                "city": "str",
                "state": "str",
                "accessible": "bool",
                "unisex": "bool",
                "directions": "str",
                "latitude": "float",
                "longitude": "float",
                "country": "str",
                "changing_table": "bool",
                "approved": "bool"
            }
        },
        {
            "name": "GetByQuery",
            "schema": {
                "id": "int",
                "name": "str",
                "street": "str",
                "city": "str",
                "state": "str",
                "accessible": "bool",
                "unisex": "bool",
                "directions": "str",
                "latitude": "float",
                "longitude": "float",
                "country": "str",
                "changing_table": "bool"
            }
        },
        {
            "name": "GetByLocation",
            "schema": {
                "name": "str",
                "street": "str",
                "city": "str",
                "state": "str",
                "accessible": "bool",
                "unisex": "bool",
                "latitude": "float",
                "longitude": "float",
                "country": "str",
                "changing_table": "bool",
                "distance": "float"
            }
        }
    ]
}