{
    "api_list": [
        {
            "name": "GET all Restaurant locations",
            "schema": {
                "matching_results": "int",
                "restaurants": [
                    {
                        "restaurantName": "str",
                        "address": "str",
                        "zipCode": "str",
                        "phone": "str",
                        "website": "str",
                        "latitude": "str",
                        "longitude": "str",
                        "stateName": "str",
                        "cityName": "str",
                        "cuisineType": "str"
                    }
                ]
            }
        },
        {
            "name": "GET all Restaurant locations by {zipcode]",
            "schema": {
                "matching_results": "int",
                "restaurants": [
                    {
                        "restaurantName": "str",
                        "address": "str",
                        "zipCode": "str",
                        "website": "str",
                        "latitude": "str",
                        "longitude": "str",
                        "stateName": "str",
                        "cityName": "str",
                        "cuisineType": "str"
                    }
                ]
            }
        },
        {
            "name": "GET all Restaurants locations by {state}",
            "schema": {
                "matching_results": "int",
                "restaurants": [
                    {
                        "restaurantName": "str",
                        "address": "str",
                        "zipCode": "str",
                        "phone": "str",
                        "website": "str",
                        "latitude": "str",
                        "longitude": "str",
                        "stateName": "str",
                        "cityName": "str",
                        "hoursInterval": "str",
                        "cuisineType": "str"
                    }
                ]
            }
        },
        {
            "name": "GET all Restaurant locations by {state} and {city}",
            "schema": {
                "matching_results": "int",
                "restaurants": [
                    {
                        "restaurantName": "str",
                        "address": "str",
                        "zipCode": "str",
                        "phone": "str",
                        "website": "str",
                        "stateName": "str",
                        "cityName": "str",
                        "cuisineType": "str"
                    }
                ]
            }
        }
    ]
}